{
"type": "FeatureCollection",
"name": "poi",
"crs": { "type": "name", "properties": { "name": "urn:ogc:def:crs:OGC:1.3:CRS84" } },
"features": [
{ "type": "Feature", "properties": { "name": "徳山本郷" }, "geometry": { "type": "Point", "coordinates": [ 136.482061383995216, 35.695368028023836 ] } },
{ "type": "Feature", "properties": { "name": "下開田" }, "geometry": { "type": "Point", "coordinates": [ 136.489361623876732, 35.692937465864752 ] } },
{ "type": "Feature", "properties": { "name": "上開田" }, "geometry": { "type": "Point", "coordinates": [ 136.477375364232444, 35.69623490846616 ] } },
{ "type": "Feature", "properties": { "name": "山手" }, "geometry": { "type": "Point", "coordinates": [ 136.458847816161949, 35.705260878235876 ] } },
{ "type": "Feature", "properties": { "name": "櫨原" }, "geometry": { "type": "Point", "coordinates": [ 136.441983539300793, 35.723121711672391 ] } },
{ "type": "Feature", "properties": { "name": "塚" }, "geometry": { "type": "Point", "coordinates": [ 136.430344766536194, 35.735492842107746 ] } },
{ "type": "Feature", "properties": { "name": "戸入" }, "geometry": { "type": "Point", "coordinates": [ 136.440211992424651, 35.681329959767247 ] } },
{ "type": "Feature", "properties": { "name": "門入" }, "geometry": { "type": "Point", "coordinates": [ 136.390481806922253, 35.670735811764303 ] } }
]
}
